% program   : PPP-Tiger PPP ver.1.0
% inp file  : GPS-only PPP analysis
% obs start : 2021/03/19 00:00:01.0 GPST
% obs end   : 2021/03/19 00:30:00.0 GPST
% pos mode  : ppp-kinematic
% solution  : forward
% elev mask : 15.0 deg
% dynamics  : off
% tidecorr  : off
% tropo opt : saastamoinen
% ephemeris : precise
% ref pos   : -3962108.0000  3381308.0000  3668679.0000
%
% (x/y/z-ecef=WGS84,Q=1:fix,2:float,3:sbas,4:dgps,5:single,6:ppp,ns=# of satellites)
%  GPST                      x-ecef(m)      y-ecef(m)      z-ecef(m)   Q  ns   sdx(m)   sdy(m)   sdz(m)  sdxy(m)  sdyz(m)  sdzx(m) age(s)  ratio
2021/03/19 00:00:01.000  -3962108.5835    3381305.4963    3668680.1082   6  10   0.3283   0.2587   0.2323  -0.0985   0.0776  -0.0697   0.00    0.0
2021/03/19 00:00:01.016  -3962108.5470    3381305.6101    3668680.0007   6  10   0.3173   0.2473   0.2347  -0.0952   0.0742  -0.0704   0.00    0.0
2021/03/19 00:00:01.033  -3962108.4019    3381305.4934    3668679.8387   6  10   0.3168   0.2449   0.2593  -0.0950   0.0735  -0.0778   0.00    0.0
2021/03/19 00:00:01.050  -3962108.3679    3381305.4459    3668679.7793   6  10   0.3182   0.2433   0.2673  -0.0954   0.0730  -0.0802   0.00    0.0
2021/03/19 00:00:01.066  -3962108.2777    3381305.3260    3668679.6078   6  10   0.3214   0.2378   0.2892  -0.0964   0.0713  -0.0868   0.00    0.0
2021/03/19 00:00:01.083  -3962108.2421    3381305.2938    3668679.5006   6  10   0.3216   0.2318   0.2993  -0.0965   0.0695  -0.0898   0.00    0.0
2021/03/19 00:00:01.100  -3962108.2248    3381305.2765    3668679.3564   6  10   0.3218   0.2214   0.3097  -0.0965   0.0664  -0.0929   0.00    0.0
2021/03/19 00:00:01.116  -3962108.1752    3381305.2366    3668679.2147   6  10   0.3216   0.2136   0.3230  -0.0965   0.0641  -0.0969   0.00    0.0
2021/03/19 00:00:01.133  -3962108.1006    3381305.1715    3668679.0484   6  10   0.3217   0.2057   0.3407  -0.0965   0.0617  -0.1022   0.00    0.0
2021/03/19 00:00:01.150  -3962108.0140    3381305.1062    3668678.8871   6  10   0.3210   0.1988   0.3589  -0.0963   0.0596  -0.1077   0.00    0.0
2021/03/19 00:00:01.166  -3962107.9441    3381305.0479    3668678.7281   6  10   0.3209   0.1911   0.3755  -0.0963   0.0573  -0.1127   0.00    0.0
2021/03/19 00:00:01.183  -3962107.8894    3381305.0137    3668678.5803   6  10   0.3200   0.1828   0.3893  -0.0960   0.0548  -0.1168   0.00    0.0
2021/03/19 00:00:01.200  -3962107.8699    3381305.0204    3668678.4723   6  10   0.3182   0.1746   0.3964  -0.0955   0.0524  -0.1189   0.00    0.0
2021/03/19 00:00:01.216  -3962107.8650    3381305.0317    3668678.3960   6  10   0.3170   0.1681   0.4005  -0.0951   0.0504  -0.1201   0.00    0.0
2021/03/19 00:00:01.233  -3962107.8416    3381305.0240    3668678.3218   6  10   0.3161   0.1634   0.4066  -0.0948   0.0490  -0.1220   0.00    0.0
2021/03/19 00:00:01.250  -3962107.8136    3381305.0217    3668678.2854   6  10   0.3144   0.1617   0.4106  -0.0943   0.0485  -0.1232   0.00    0.0
2021/03/19 00:00:01.266  -3962107.8134    3381305.0346    3668678.2887   6  10   0.3134   0.1615   0.4098  -0.0940   0.0485  -0.1229   0.00    0.0
2021/03/19 00:00:01.283  -3962107.8096    3381305.0541    3668678.3106   6  10   0.3117   0.1628   0.4077  -0.0935   0.0488  -0.1223   0.00    0.0
2021/03/19 00:00:01.300  -3962107.7866    3381305.0723    3668678.3015   6  10   0.3088   0.1623   0.4087  -0.0927   0.0487  -0.1226   0.00    0.0
2021/03/19 00:00:01.316  -3962107.7542    3381305.0736    3668678.2862   6  10   0.3066   0.1625   0.4115  -0.0920   0.0487  -0.1235   0.00    0.0
2021/03/19 00:00:01.333  -3962107.7035    3381305.0489    3668678.2491   6  10   0.3052   0.1626   0.4181  -0.0916   0.0488  -0.1254   0.00    0.0
2021/03/19 00:00:01.350  -3962107.6607    3381305.0345    3668678.2139   6  10   0.3035   0.1622   0.4236  -0.0911   0.0486  -0.1271   0.00    0.0
2021/03/19 00:00:01.366  -3962107.6067    3381305.0220    3668678.1712   6  10   0.3010   0.1615   0.4300  -0.0903   0.0485  -0.1290   0.00    0.0
2021/03/19 00:00:01.383  -3962107.5741    3381305.0395    3668678.1692   6  10   0.2975   0.1621   0.4312  -0.0893   0.0486  -0.1294   0.00    0.0
2021/03/19 00:00:01.400  -3962107.5517    3381305.0809    3668678.1835   6  10   0.2929   0.1627   0.4296  -0.0879   0.0488  -0.1289   0.00    0.0
2021/03/19 00:00:01.416  -3962107.5165    3381305.1222    3668678.1805   6  10   0.2875   0.1625   0.4298  -0.0863   0.0487  -0.1289   0.00    0.0
2021/03/19 00:00:01.433  -3962107.4852    3381305.1658    3668678.1951   6  10   0.2822   0.1634   0.4286  -0.0846   0.0490  -0.1286   0.00    0.0
2021/03/19 00:00:01.450  -3962107.4725    3381305.2098    3668678.2215   6  10   0.2780   0.1645   0.4255  -0.0834   0.0493  -0.1277   0.00    0.0
2021/03/19 00:00:01.466  -3962107.4826    3381305.2691    3668678.2642   6  10   0.2741   0.1653   0.4193  -0.0822   0.0496  -0.1258   0.00    0.0
2021/03/19 00:00:01.483  -3962107.5163    3381305.3357    3668678.3227   6  10   0.2713   0.1661   0.4103  -0.0814   0.0498  -0.1231   0.00    0.0
2021/03/19 00:00:01.500  -3962107.5446    3381305.3952    3668678.3883   6  10   0.2686   0.1679   0.4016  -0.0806   0.0504  -0.1205   0.00    0.0
2021/03/19 00:00:01.516  -3962107.5623    3381305.4375    3668678.4380   6  10   0.2665   0.1696   0.3954  -0.0800   0.0509  -0.1186   0.00    0.0
2021/03/19 00:00:01.533  -3962107.5678    3381305.4467    3668678.4591   6  10   0.2662   0.1708   0.3933  -0.0798   0.0512  -0.1180   0.00    0.0
2021/03/19 00:00:01.550  -3962107.5896    3381305.4805    3668678.4987   6  10   0.2650   0.1718   0.3879  -0.0795   0.0515  -0.1164   0.00    0.0
2021/03/19 00:00:01.566  -3962107.6105    3381305.5050    3668678.5320   6  10   0.2645   0.1726   0.3834  -0.0793   0.0518  -0.1150   0.00    0.0
2021/03/19 00:00:01.583  -3962107.6290    3381305.5271    3668678.5693   6  10   0.2640   0.1740   0.3789  -0.0792   0.0522  -0.1137   0.00    0.0
2021/03/19 00:00:01.600  -3962107.6508    3381305.5557    3668678.6012   6  10   0.2633   0.1746   0.3742  -0.0790   0.0524  -0.1123   0.00    0.0
2021/03/19 00:00:01.616  -3962107.6657    3381305.5748    3668678.6240   6  10   0.2628   0.1751   0.3709  -0.0788   0.0525  -0.1113   0.00    0.0
2021/03/19 00:00:01.633  -3962107.6917    3381305.6109    3668678.6483   6  10   0.2617   0.1746   0.3660  -0.0785   0.0524  -0.1098   0.00    0.0
2021/03/19 00:00:01.650  -3962107.7082    3381305.6466    3668678.6560   6  10   0.2601   0.1731   0.3626  -0.0780   0.0519  -0.1088   0.00    0.0
2021/03/19 00:00:01.666  -3962107.7168    3381305.6878    3668678.6617   6  10   0.2575   0.1717   0.3596  -0.0772   0.0515  -0.1079   0.00    0.0
2021/03/19 00:00:01.683  -3962107.7199    3381305.7355    3668678.6684   6  10   0.2541   0.1703   0.3565  -0.0762   0.0511  -0.1069   0.00    0.0
2021/03/19 00:00:01.700  -3962107.7222    3381305.7801    3668678.6749   6  10   0.2508   0.1691   0.3536  -0.0752   0.0507  -0.1061   0.00    0.0
2021/03/19 00:00:01.716  -3962107.7192    3381305.8205    3668678.6909   6  10   0.2476   0.1690   0.3507  -0.0743   0.0507  -0.1052   0.00    0.0
2021/03/19 00:00:01.733  -3962107.7164    3381305.8688    3668678.7060   6  10   0.2437   0.1685   0.3475  -0.0731   0.0506  -0.1042   0.00    0.0
2021/03/19 00:00:01.750  -3962107.7146    3381305.9042    3668678.7230   6  10   0.2409   0.1687   0.3447  -0.0723   0.0506  -0.1034   0.00    0.0
2021/03/19 00:00:01.766  -3962107.7071    3381305.9400    3668678.7460   6  10   0.2377   0.1695   0.3420  -0.0713   0.0509  -0.1026   0.00    0.0
2021/03/19 00:00:01.783  -3962107.7052    3381305.9716    3668678.7756   6  10   0.2352   0.1708   0.3387  -0.0705   0.0512  -0.1016   0.00    0.0
2021/03/19 00:00:01.800  -3962107.7000    3381306.0130    3668678.8042   6  10   0.2317   0.1718   0.3352  -0.0695   0.0516  -0.1005   0.00    0.0
2021/03/19 00:00:01.816  -3962107.6954    3381306.0417    3668678.8294   6  10   0.2292   0.1730   0.3325  -0.0688   0.0519  -0.0997   0.00    0.0
2021/03/19 00:00:01.833  -3962107.6884    3381306.0740    3668678.8553   6  10   0.2263   0.1742   0.3297  -0.0679   0.0523  -0.0989   0.00    0.0
2021/03/19 00:00:01.850  -3962107.6894    3381306.1115    3668678.8841   6  10   0.2235   0.1751   0.3260  -0.0670   0.0525  -0.0978   0.00    0.0
2021/03/19 00:00:01.866  -3962107.6822    3381306.1352    3668678.8890   6  10   0.2212   0.1750   0.3249  -0.0664   0.0525  -0.0975   0.00    0.0
2021/03/19 00:00:01.883  -3962107.6730    3381306.1571    3668678.8937   6  10   0.2190   0.1749   0.3240  -0.0657   0.0525  -0.0972   0.00    0.0
2021/03/19 00:00:01.900  -3962107.6757    3381306.1794    3668678.8998   6  10   0.2174   0.1745   0.3223  -0.0652   0.0523  -0.0967   0.00    0.0
2021/03/19 00:00:01.916  -3962107.6846    3381306.1998    3668678.9064   6  10   0.2165   0.1738   0.3203  -0.0649   0.0522  -0.0961   0.00    0.0
2021/03/19 00:00:01.933  -3962107.6908    3381306.2182    3668678.9158   6  10   0.2155   0.1736   0.3184  -0.0646   0.0521  -0.0955   0.00    0.0
2021/03/19 00:00:01.950  -3962107.6991    3381306.2355    3668678.9192   6  10   0.2147   0.1729   0.3168  -0.0644   0.0519  -0.0950   0.00    0.0
2021/03/19 00:00:01.966  -3962107.7073    3381306.2592    3668678.9359   6  10   0.2134   0.1730   0.3141  -0.0640   0.0519  -0.0942   0.00    0.0
2021/03/19 00:00:01.983  -3962107.7235    3381306.2871    3668678.9540   6  10   0.2123   0.1727   0.3105  -0.0637   0.0518  -0.0932   0.00    0.0
2021/03/19 00:00:02.000  -3962107.7367    3381306.3209    3668678.9720   6  10   0.2106   0.1723   0.3069  -0.0632   0.0517  -0.0921   0.00    0.0
2021/03/19 00:00:02.016  -3962107.7502    3381306.3540    3668678.9843   6  10   0.2090   0.1715   0.3036  -0.0627   0.0515  -0.0911   0.00    0.0
2021/03/19 00:00:02.033  -3962107.7568    3381306.3873    3668679.0031   6  10   0.2069   0.1715   0.3003  -0.0621   0.0515  -0.0901   0.00    0.0
2021/03/19 00:00:02.050  -3962107.7541    3381306.4160    3668679.0055   6  10   0.2045   0.1707   0.2988  -0.0614   0.0512  -0.0896   0.00    0.0
2021/03/19 00:00:02.066  -3962107.7655    3381306.4504    3668679.0235   6  10   0.2026   0.1704   0.2953  -0.0608   0.0511  -0.0886   0.00    0.0
2021/03/19 00:00:02.083  -3962107.7635    3381306.4728    3668679.0297   6  10   0.2008   0.1702   0.2938  -0.0602   0.0511  -0.0881   0.00    0.0
2021/03/19 00:00:02.100  -3962107.7599    3381306.4940    3668679.0323   6  10   0.1990   0.1697   0.2928  -0.0597   0.0509  -0.0878   0.00    0.0
2021/03/19 00:00:02.116  -3962107.7557    3381306.5105    3668679.0302   6  10   0.1974   0.1691   0.2923  -0.0592   0.0507  -0.0877   0.00    0.0
2021/03/19 00:00:02.133  -3962107.7619    3381306.5277    3668679.0346   6  10   0.1965   0.1686   0.2907  -0.0590   0.0506  -0.0872   0.00    0.0
2021/03/19 00:00:02.150  -3962107.7664    3381306.5456    3668679.0411   6  10   0.1955   0.1682   0.2891  -0.0586   0.0505  -0.0867   0.00    0.0
2021/03/19 00:00:02.166  -3962107.7686    3381306.5630    3668679.0400   6  10   0.1943   0.1674   0.2881  -0.0583   0.0502  -0.0864   0.00    0.0
2021/03/19 00:00:02.183  -3962107.7717    3381306.5763    3668679.0432   6  10   0.1935   0.1670   0.2871  -0.0580   0.0501  -0.0861   0.00    0.0
2021/03/19 00:00:02.200  -3962107.7709    3381306.5887    3668679.0436   6  10   0.1925   0.1666   0.2864  -0.0577   0.0500  -0.0859   0.00    0.0
2021/03/19 00:00:02.216  -3962107.7808    3381306.6061    3668679.0565   6  10   0.1918   0.1666   0.2842  -0.0575   0.0500  -0.0852   0.00    0.0
2021/03/19 00:00:02.233  -3962107.7797    3381306.6120    3668679.0623   6  10   0.1913   0.1669   0.2836  -0.0574   0.0501  -0.0851   0.00    0.0
2021/03/19 00:00:02.250  -3962107.7909    3381306.6320    3668679.0747   6  10   0.1905   0.1667   0.2811  -0.0571   0.0500  -0.0843   0.00    0.0
2021/03/19 00:00:02.266  -3962107.7990    3381306.6431    3668679.0749   6  10   0.1902   0.1659   0.2800  -0.0571   0.0498  -0.0840   0.00    0.0
2021/03/19 00:00:02.283  -3962107.8033    3381306.6601    3668679.0803   6  10   0.1892   0.1655   0.2785  -0.0567   0.0497  -0.0836   0.00    0.0
2021/03/19 00:00:02.300  -3962107.8043    3381306.6678    3668679.0776   6  10   0.1886   0.1650   0.2782  -0.0566   0.0495  -0.0835   0.00    0.0
2021/03/19 00:00:02.316  -3962107.8139    3381306.6884    3668679.0917   6  10   0.1877   0.1649   0.2757  -0.0563   0.0495  -0.0827   0.00    0.0
2021/03/19 00:00:02.333  -3962107.8187    3381306.7071    3668679.0963   6  10   0.1866   0.1644   0.2741  -0.0560   0.0493  -0.0822   0.00    0.0
2021/03/19 00:00:02.350  -3962107.8218    3381306.7193    3668679.1029   6  10   0.1858   0.1643   0.2729  -0.0558   0.0493  -0.0819   0.00    0.0
2021/03/19 00:00:02.366  -3962107.8259    3381306.7370    3668679.1098   6  10   0.1848   0.1640   0.2713  -0.0554   0.0492  -0.0814   0.00    0.0
2021/03/19 00:00:02.383  -3962107.8293    3381306.7541    3668679.1126   6  10   0.1837   0.1635   0.2701  -0.0551   0.0490  -0.0810   0.00    0.0
2021/03/19 00:00:02.400  -3962107.8334    3381306.7768    3668679.1216   6  10   0.1822   0.1632   0.2681  -0.0547   0.0490  -0.0804   0.00    0.0
2021/03/19 00:00:02.416  -3962107.8388    3381306.7917    3668679.1286   6  10   0.1815   0.1630   0.2665  -0.0544   0.0489  -0.0800   0.00    0.0
2021/03/19 00:00:02.433  -3962107.8416    3381306.8059    3668679.1268   6  10   0.1805   0.1622   0.2657  -0.0542   0.0486  -0.0797   0.00    0.0
2021/03/19 00:00:02.450  -3962107.8489    3381306.8303    3668679.1337   6  10   0.1792   0.1615   0.2636  -0.0537   0.0484  -0.0791   0.00    0.0
2021/03/19 00:00:02.466  -3962107.8599    3381306.8533    3668679.1388   6  10   0.1781   0.1605   0.2614  -0.0534   0.0482  -0.0784   0.00    0.0
2021/03/19 00:00:02.483  -3962107.8640    3381306.8732    3668679.1426   6  10   0.1769   0.1599   0.2599  -0.0531   0.0480  -0.0780   0.00    0.0
2021/03/19 00:00:02.500  -3962107.8701    3381306.8974    3668679.1520   6  10   0.1754   0.1595   0.2577  -0.0526   0.0479  -0.0773   0.00    0.0
2021/03/19 00:00:02.516  -3962107.8733    3381306.9134    3668679.1554   6  10   0.1744   0.1591   0.2564  -0.0523   0.0477  -0.0769   0.00    0.0
2021/03/19 00:00:02.533  -3962107.8760    3381306.9246    3668679.1569   6  10   0.1738   0.1586   0.2556  -0.0521   0.0476  -0.0767   0.00    0.0
2021/03/19 00:00:02.550  -3962107.8828    3381306.9443    3668679.1661   6  10   0.1727   0.1583   0.2536  -0.0518   0.0475  -0.0761   0.00    0.0
2021/03/19 00:00:02.566  -3962107.8756    3381306.9443    3668679.1624   6  10   0.1722   0.1584   0.2542  -0.0517   0.0475  -0.0763   0.00    0.0
2021/03/19 00:00:02.583  -3962107.8732    3381306.9485    3668679.1583   6  10   0.1717   0.1580   0.2544  -0.0515   0.0474  -0.0763   0.00    0.0
2021/03/19 00:00:02.600  -3962107.8645    3381306.9441    3668679.1575   6  10   0.1715   0.1585   0.2552  -0.0515   0.0475  -0.0766   0.00    0.0
2021/03/19 00:00:02.616  -3962107.8597    3381306.9462    3668679.1582   6  10   0.1711   0.1586   0.2554  -0.0513   0.0476  -0.0766   0.00    0.0
2021/03/19 00:00:02.633  -3962107.8563    3381306.9445    3668679.1571   6  10   0.1710   0.1588   0.2557  -0.0513   0.0476  -0.0767   0.00    0.0
2021/03/19 00:00:02.650  -3962107.8539    3381306.9431    3668679.1545   6  10   0.1709   0.1587   0.2561  -0.0513   0.0476  -0.0768   0.00    0.0
2021/03/19 00:00:02.666  -3962107.8601    3381306.9560    3668679.1611   6  10   0.1703   0.1585   0.2546  -0.0511   0.0475  -0.0764   0.00    0.0
2021/03/19 00:00:02.683  -3962107.8657    3381306.9672    3668679.1710   6  10   0.1698   0.1586   0.2531  -0.0510   0.0476  -0.0759   0.00    0.0
2021/03/19 00:00:02.700  -3962107.8788    3381306.9892    3668679.1896   6  10   0.1690   0.1588   0.2501  -0.0507   0.0476  -0.0750   0.00    0.0
2021/03/19 00:00:02.716  -3962107.8836    3381306.9978    3668679.1971   6  10   0.1687   0.1588   0.2489  -0.0506   0.0476  -0.0747   0.00    0.0
2021/03/19 00:00:02.733  -3962107.8888    3381307.0124    3668679.2058   6  10   0.1679   0.1588   0.2473  -0.0504   0.0476  -0.0742   0.00    0.0
2021/03/19 00:00:02.750  -3962107.8907    3381307.0199    3668679.2104   6  10   0.1675   0.1588   0.2465  -0.0502   0.0476  -0.0740   0.00    0.0
2021/03/19 00:00:02.766  -3962107.8961    3381307.0347    3668679.2181   6  10   0.1667   0.1586   0.2450  -0.0500   0.0476  -0.0735   0.00    0.0
2021/03/19 00:00:02.783  -3962107.8991    3381307.0420    3668679.2200   6  10   0.1663   0.1584   0.2443  -0.0499   0.0475  -0.0733   0.00    0.0
2021/03/19 00:00:02.800  -3962107.8913    3381307.0461    3668679.2142   6  10   0.1655   0.1581   0.2449  -0.0496   0.0474  -0.0735   0.00    0.0
2021/03/19 00:00:02.816  -3962107.8908    3381307.0459    3668679.2119   6  10   0.1655   0.1579   0.2450  -0.0496   0.0474  -0.0735   0.00    0.0
2021/03/19 00:00:02.833  -3962107.8835    3381307.0426    3668679.2037   6  10   0.1653   0.1577   0.2461  -0.0496   0.0473  -0.0738   0.00    0.0
2021/03/19 00:00:02.850  -3962107.8734    3381307.0374    3668679.1953   6  10   0.1650   0.1576   0.2475  -0.0495   0.0473  -0.0743   0.00    0.0
2021/03/19 00:00:02.866  -3962107.8640    3381307.0312    3668679.1902   6  10   0.1649   0.1579   0.2487  -0.0495   0.0474  -0.0746   0.00    0.0
2021/03/19 00:00:02.883  -3962107.8581    3381307.0311    3668679.1881   6  10   0.1645   0.1580   0.2492  -0.0493   0.0474  -0.0748   0.00    0.0
2021/03/19 00:00:02.900  -3962107.8425    3381307.0293    3668679.1800   6  10   0.1636   0.1581   0.2508  -0.0491   0.0474  -0.0752   0.00    0.0
2021/03/19 00:00:02.916  -3962107.8320    3381307.0281    3668679.1818   6  10   0.1630   0.1587   0.2514  -0.0489   0.0476  -0.0754   0.00    0.0
2021/03/19 00:00:02.933  -3962107.8195    3381307.0281    3668679.1815   6  10   0.1622   0.1592   0.2522  -0.0487   0.0478  -0.0757   0.00    0.0
2021/03/19 00:00:02.950  -3962107.8101    3381307.0280    3668679.1768   6  10   0.1616   0.1593   0.2530  -0.0485   0.0478  -0.0759   0.00    0.0
2021/03/19 00:00:02.966  -3962107.8039    3381307.0323    3668679.1847   6  10   0.1609   0.1600   0.2527  -0.0483   0.0480  -0.0758   0.00    0.0
2021/03/19 00:00:02.983  -3962107.7983    3381307.0332    3668679.1901   6  10   0.1605   0.1607   0.2527  -0.0481   0.0482  -0.0758   0.00    0.0
2021/03/19 00:00:03.000  -3962107.7879    3381307.0303    3668679.1921   6  10   0.1600   0.1614   0.2534  -0.0480   0.0484  -0.0760   0.00    0.0
2021/03/19 00:00:03.016  -3962107.7741    3381307.0327    3668679.1912   6  10   0.1589   0.1619   0.2542  -0.0477   0.0486  -0.0763   0.00    0.0
2021/03/19 00:00:03.033  -3962107.7593    3381307.0269    3668679.1910   6  10   0.1584   0.1627   0.2554  -0.0475   0.0488  -0.0766   0.00    0.0
2021/03/19 00:00:03.050  -3962107.7509    3381307.0249    3668679.1932   6  10   0.1580   0.1633   0.2559  -0.0474   0.0490  -0.0768   0.00    0.0
2021/03/19 00:00:03.066  -3962107.7360    3381307.0194    3668679.1904   6  10   0.1575   0.1640   0.2573  -0.0472   0.0492  -0.0772   0.00    0.0
2021/03/19 00:00:03.083  -3962107.7258    3381307.0199    3668679.1983   6  10   0.1568   0.1650   0.2574  -0.0470   0.0495  -0.0772   0.00    0.0
2021/03/19 00:00:03.100  -3962107.7178    3381307.0199    3668679.2034   6  10   0.1562   0.1658   0.2577  -0.0469   0.0497  -0.0773   0.00    0.0
2021/03/19 00:00:03.116  -3962107.7087    3381307.0171    3668679.2085   6  10   0.1559   0.1667   0.2581  -0.0468   0.0500  -0.0774   0.00    0.0
2021/03/19 00:00:03.133  -3962107.7044    3381307.0143    3668679.2153   6  10   0.1558   0.1676   0.2581  -0.0467   0.0503  -0.0774   0.00    0.0
2021/03/19 00:00:03.150  -3962107.7003    3381307.0137    3668679.2217   6  10   0.1556   0.1683   0.2580  -0.0467   0.0505  -0.0774   0.00    0.0
2021/03/19 00:00:03.166  -3962107.7011    3381307.0158    3668679.2251   6  10   0.1555   0.1685   0.2576  -0.0466   0.0505  -0.0773   0.00    0.0
2021/03/19 00:00:03.183  -3962107.7012    3381307.0212    3668679.2323   6  10   0.1551   0.1688   0.2569  -0.0465   0.0507  -0.0771   0.00    0.0
2021/03/19 00:00:03.200  -3962107.7011    3381307.0223    3668679.2385   6  10   0.1550   0.1693   0.2565  -0.0465   0.0508  -0.0770   0.00    0.0
2021/03/19 00:00:03.216  -3962107.7032    3381307.0281    3668679.2494   6  10   0.1547   0.1699   0.2555  -0.0464   0.0510  -0.0766   0.00    0.0
2021/03/19 00:00:03.233  -3962107.7063    3381307.0352    3668679.2587   6  10   0.1543   0.1703   0.2543  -0.0463   0.0511  -0.0763   0.00    0.0
2021/03/19 00:00:03.250  -3962107.7034    3381307.0387    3668679.2674   6  10   0.1539   0.1710   0.2538  -0.0462   0.0513  -0.0762   0.00    0.0
2021/03/19 00:00:03.266  -3962107.7044    3381307.0407    3668679.2788   6  10   0.1538   0.1718   0.2530  -0.0461   0.0515  -0.0759   0.00    0.0
2021/03/19 00:00:03.283  -3962107.7045    3381307.0454    3668679.2860   6  10   0.1534   0.1722   0.2523  -0.0460   0.0517  -0.0757   0.00    0.0
2021/03/19 00:00:03.300  -3962107.7037    3381307.0433    3668679.2857   6  10   0.1535   0.1723   0.2525  -0.0461   0.0517  -0.0758   0.00    0.0
2021/03/19 00:00:03.316  -3962107.7042    3381307.0463    3668679.2945   6  10   0.1533   0.1729   0.2518  -0.0460   0.0519  -0.0755   0.00    0.0
2021/03/19 00:00:03.333  -3962107.7037    3381307.0481    3668679.2980   6  10   0.1532   0.1731   0.2516  -0.0460   0.0519  -0.0755   0.00    0.0
2021/03/19 00:00:03.350  -3962107.7069    3381307.0541    3668679.3055   6  10   0.1529   0.1733   0.2506  -0.0459   0.0520  -0.0752   0.00    0.0
2021/03/19 00:00:03.366  -3962107.6996    3381307.0436    3668679.3025   6  10   0.1532   0.1738   0.2518  -0.0460   0.0521  -0.0755   0.00    0.0
2021/03/19 00:00:03.383  -3962107.6957    3381307.0447    3668679.3011   6  10   0.1529   0.1738   0.2521  -0.0459   0.0521  -0.0756   0.00    0.0
2021/03/19 00:00:03.400  -3962107.6981    3381307.0425    3668679.3033   6  10   0.1532   0.1740   0.2519  -0.0460   0.0522  -0.0756   0.00    0.0
2021/03/19 00:00:03.416  -3962107.7010    3381307.0517    3668679.3098   6  10   0.1527   0.1740   0.2508  -0.0458   0.0522  -0.0753   0.00    0.0
2021/03/19 00:00:03.433  -3962107.7051    3381307.0582    3668679.3193   6  10   0.1525   0.1744   0.2497  -0.0457   0.0523  -0.0749   0.00    0.0
2021/03/19 00:00:03.450  -3962107.7051    3381307.0586    3668679.3205   6  10   0.1525   0.1745   0.2496  -0.0457   0.0523  -0.0749   0.00    0.0
2021/03/19 00:00:03.466  -3962107.7075    3381307.0617    3668679.3285   6  10   0.1524   0.1749   0.2488  -0.0457   0.0525  -0.0746   0.00    0.0
2021/03/19 00:00:03.483  -3962107.7073    3381307.0603    3668679.3294   6  10   0.1525   0.1750   0.2489  -0.0457   0.0525  -0.0747   0.00    0.0
2021/03/19 00:00:03.500  -3962107.7051    3381307.0616    3668679.3339   6  10   0.1522   0.1754   0.2487  -0.0457   0.0526  -0.0746   0.00    0.0
2021/03/19 00:00:03.516  -3962107.7002    3381307.0593    3668679.3361   6  10   0.1521   0.1759   0.2490  -0.0456   0.0528  -0.0747   0.00    0.0
2021/03/19 00:00:03.533  -3962107.6948    3381307.0622    3668679.3385   6  10   0.1515   0.1763   0.2490  -0.0455   0.0529  -0.0747   0.00    0.0
2021/03/19 00:00:03.550  -3962107.6858    3381307.0570    3668679.3347   6  10   0.1513   0.1765   0.2501  -0.0454   0.0530  -0.0750   0.00    0.0
2021/03/19 00:00:03.566  -3962107.6819    3381307.0622    3668679.3354   6  10   0.1507   0.1766   0.2500  -0.0452   0.0530  -0.0750   0.00    0.0
2021/03/19 00:00:03.583  -3962107.6845    3381307.0685    3668679.3426   6  10   0.1504   0.1768   0.2491  -0.0451   0.0530  -0.0747   0.00    0.0
2021/03/19 00:00:03.600  -3962107.6750    3381307.0730    3668679.3403   6  10   0.1494   0.1769   0.2496  -0.0448   0.0531  -0.0749   0.00    0.0
2021/03/19 00:00:03.616  -3962107.6731    3381307.0793    3668679.3408   6  10   0.1488   0.1768   0.2493  -0.0446   0.0530  -0.0748   0.00    0.0
2021/03/19 00:00:03.633  -3962107.6738    3381307.0840    3668679.3416   6  10   0.1485   0.1766   0.2490  -0.0446   0.0530  -0.0747   0.00    0.0
2021/03/19 00:00:03.650  -3962107.6761    3381307.0937    3668679.3464   6  10   0.1479   0.1765   0.2481  -0.0444   0.0530  -0.0744   0.00    0.0
2021/03/19 00:00:03.666  -3962107.6740    3381307.0943    3668679.3405   6  10   0.1477   0.1761   0.2485  -0.0443   0.0528  -0.0745   0.00    0.0
2021/03/19 00:00:03.683  -3962107.6771    3381307.1084    3668679.3475   6  10   0.1469   0.1760   0.2471  -0.0441   0.0528  -0.0741   0.00    0.0
2021/03/19 00:00:03.700  -3962107.6755    3381307.1137    3668679.3390   6  10   0.1464   0.1752   0.2475  -0.0439   0.0526  -0.0742   0.00    0.0
2021/03/19 00:00:03.716  -3962107.6766    3381307.1208    3668679.3403   6  10   0.1459   0.1750   0.2469  -0.0438   0.0525  -0.0741   0.00    0.0
2021/03/19 00:00:03.733  -3962107.6712    3381307.1212    3668679.3337   6  10   0.1455   0.1747   0.2476  -0.0437   0.0524  -0.0743   0.00    0.0
2021/03/19 00:00:03.750  -3962107.6680    3381307.1264    3668679.3318   6  10   0.1449   0.1745   0.2477  -0.0435   0.0523  -0.0743   0.00    0.0
2021/03/19 00:00:03.766  -3962107.6660    3381307.1313    3668679.3316   6  10   0.1444   0.1744   0.2475  -0.0433   0.0523  -0.0743   0.00    0.0
2021/03/19 00:00:03.783  -3962107.6708    3381307.1369    3668679.3366   6  10   0.1443   0.1743   0.2467  -0.0433   0.0523  -0.0740   0.00    0.0
2021/03/19 00:00:03.800  -3962107.6681    3381307.1410    3668679.3321   6  10   0.1438   0.1739   0.2469  -0.0431   0.0522  -0.0741   0.00    0.0
2021/03/19 00:00:03.816  -3962107.6682    3381307.1419    3668679.3253   6  10   0.1437   0.1734   0.2472  -0.0431   0.0520  -0.0742   0.00    0.0
2021/03/19 00:00:03.833  -3962107.6678    3381307.1448    3668679.3258   6  10   0.1435   0.1733   0.2471  -0.0430   0.0520  -0.0741   0.00    0.0
2021/03/19 00:00:03.850  -3962107.6744    3381307.1520    3668679.3304   6  10   0.1434   0.1731   0.2460  -0.0430   0.0519  -0.0738   0.00    0.0
2021/03/19 00:00:03.866  -3962107.6676    3381307.1454    3668679.3246   6  10   0.1434   0.1732   0.2471  -0.0430   0.0520  -0.0741   0.00    0.0
2021/03/19 00:00:03.883  -3962107.6680    3381307.1454    3668679.3276   6  10   0.1435   0.1734   0.2469  -0.0430   0.0520  -0.0741   0.00    0.0
2021/03/19 00:00:03.900  -3962107.6637    3381307.1400    3668679.3262   6  10   0.1436   0.1737   0.2475  -0.0431   0.0521  -0.0743   0.00    0.0
2021/03/19 00:00:03.916  -3962107.6567    3381307.1261    3668679.3156   6  10   0.1442   0.1737   0.2493  -0.0433   0.0521  -0.0748   0.00    0.0
2021/03/19 00:00:03.933  -3962107.6534    3381307.1242    3668679.3122   6  10   0.1441   0.1736   0.2498  -0.0432   0.0521  -0.0749   0.00    0.0
2021/03/19 00:00:03.950  -3962107.6510    3381307.1184    3668679.3066   6  10   0.1444   0.1735   0.2506  -0.0433   0.0520  -0.0752   0.00    0.0
2021/03/19 00:00:03.966  -3962107.6463    3381307.1155    3668679.3040   6  10   0.1443   0.1736   0.2512  -0.0433   0.0521  -0.0754   0.00    0.0
2021/03/19 00:00:03.983  -3962107.6476    3381307.1129    3668679.3012   6  10   0.1446   0.1734   0.2514  -0.0434   0.0520  -0.0754   0.00    0.0
2021/03/19 00:00:04.000  -3962107.6450    3381307.1125    3668679.2975   6  10   0.1445   0.1732   0.2518  -0.0433   0.0520  -0.0755   0.00    0.0
2021/03/19 00:00:04.016  -3962107.6410    3381307.1107    3668679.2933   6  10   0.1443   0.1731   0.2524  -0.0433   0.0519  -0.0757   0.00    0.0
2021/03/19 00:00:04.033  -3962107.6402    3381307.1066    3668679.2913   6  10   0.1446   0.1731   0.2528  -0.0434   0.0519  -0.0758   0.00    0.0
2021/03/19 00:00:04.050  -3962107.6372    3381307.1080    3668679.2862   6  10   0.1443   0.1728   0.2532  -0.0433   0.0518  -0.0760   0.00    0.0
2021/03/19 00:00:04.066  -3962107.6379    3381307.1053    3668679.2854   6  10   0.1446   0.1728   0.2533  -0.0434   0.0518  -0.0760   0.00    0.0
2021/03/19 00:00:04.083  -3962107.6444    3381307.1091    3668679.2898   6  10   0.1447   0.1727   0.2525  -0.0434   0.0518  -0.0757   0.00    0.0
2021/03/19 00:00:04.100  -3962107.6440    3381307.1109    3668679.2908   6  10   0.1445   0.1728   0.2523  -0.0434   0.0518  -0.0757   0.00    0.0
2021/03/19 00:00:04.116  -3962107.6431    3381307.1124    3668679.2879   6  10   0.1443   0.1725   0.2525  -0.0433   0.0518  -0.0757   0.00    0.0
2021/03/19 00:00:04.133  -3962107.6473    3381307.1151    3668679.2915   6  10   0.1444   0.1725   0.2519  -0.0433   0.0518  -0.0756   0.00    0.0
2021/03/19 00:00:04.150  -3962107.6421    3381307.1113    3668679.2857   6  10   0.1444   0.1724   0.2527  -0.0433   0.0517  -0.0758   0.00    0.0
2021/03/19 00:00:04.166  -3962107.6451    3381307.1137    3668679.2863   6  10   0.1444   0.1723   0.2524  -0.0433   0.0517  -0.0757   0.00    0.0
2021/03/19 00:00:04.183  -3962107.6443    3381307.1173    3668679.2879   6  10   0.1441   0.1723   0.2522  -0.0432   0.0517  -0.0756   0.00    0.0
2021/03/19 00:00:04.200  -3962107.6453    3381307.1171    3668679.2849   6  10   0.1441   0.1720   0.2523  -0.0432   0.0516  -0.0757   0.00    0.0
2021/03/19 00:00:04.216  -3962107.6451    3381307.1166    3668679.2828   6  10   0.1442   0.1719   0.2524  -0.0432   0.0516  -0.0757   0.00    0.0
2021/03/19 00:00:04.233  -3962107.6530    3381307.1193    3668679.2861   6  10   0.1445   0.1717   0.2516  -0.0433   0.0515  -0.0755   0.00    0.0
2021/03/19 00:00:04.250  -3962107.6561    3381307.1195    3668679.2888   6  10   0.1447   0.1717   0.2513  -0.0434   0.0515  -0.0754   0.00    0.0
2021/03/19 00:00:04.266  -3962107.6651    3381307.1232    3668679.2873   6  10   0.1450   0.1711   0.2506  -0.0435   0.0513  -0.0752   0.00    0.0
2021/03/19 00:00:04.283  -3962107.6656    3381307.1187    3668679.2801   6  10   0.1453   0.1707   0.2512  -0.0436   0.0512  -0.0754   0.00    0.0
2021/03/19 00:00:04.300  -3962107.6651    3381307.1102    3668679.2612   6  10   0.1459   0.1694   0.2528  -0.0438   0.0508  -0.0758   0.00    0.0
2021/03/19 00:00:04.316  -3962107.6679    3381307.1116    3668679.2632   6  10   0.1460   0.1694   0.2524  -0.0438   0.0508  -0.0757   0.00    0.0
2021/03/19 00:00:04.333  -3962107.6756    3381307.1095    3668679.2687   6  10   0.1467   0.1696   0.2517  -0.0440   0.0509  -0.0755   0.00    0.0
2021/03/19 00:00:04.350  -3962107.6762    3381307.1033    3668679.2663   6  10   0.1472   0.1696   0.2522  -0.0442   0.0509  -0.0757   0.00    0.0
2021/03/19 00:00:04.366  -3962107.6759    3381307.0989    3668679.2624   6  10   0.1475   0.1695   0.2527  -0.0443   0.0508  -0.0758   0.00    0.0
2021/03/19 00:00:04.383  -3962107.6749    3381307.0909    3668679.2565   6  10   0.1480   0.1694   0.2535  -0.0444   0.0508  -0.0760   0.00    0.0
2021/03/19 00:00:04.400  -3962107.6783    3381307.0937    3668679.2604   6  10   0.1481   0.1694   0.2529  -0.0444   0.0508  -0.0759   0.00    0.0
2021/03/19 00:00:04.416  -3962107.6780    3381307.0894    3668679.2541   6  10   0.1484   0.1691   0.2535  -0.0445   0.0507  -0.0761   0.00    0.0
2021/03/19 00:00:04.433  -3962107.6821    3381307.0917    3668679.2563   6  10   0.1484   0.1690   0.2530  -0.0445   0.0507  -0.0759   0.00    0.0
2021/03/19 00:00:04.450  -3962107.6879    3381307.0877    3668679.2577   6  10   0.1491   0.1690   0.2528  -0.0447   0.0507  -0.0758   0.00    0.0
2021/03/19 00:00:04.466  -3962107.6934    3381307.0885    3668679.2630   6  10   0.1494   0.1692   0.2521  -0.0448   0.0508  -0.0756   0.00    0.0
2021/03/19 00:00:04.483  -3962107.6988    3381307.0882    3668679.2660   6  10   0.1498   0.1692   0.2516  -0.0449   0.0508  -0.0755   0.00    0.0
2021/03/19 00:00:04.500  -3962107.7061    3381307.0913    3668679.2664   6  10   0.1500   0.1688   0.2509  -0.0450   0.0506  -0.0753   0.00    0.0
2021/03/19 00:00:04.516  -3962107.7137    3381307.0931    3668679.2715   6  10   0.1504   0.1688   0.2501  -0.0451   0.0506  -0.0750   0.00    0.0
2021/03/19 00:00:04.533  -3962107.7249    3381307.0945    3668679.2755   6  10   0.1510   0.1686   0.2491  -0.0453   0.0506  -0.0747   0.00    0.0
2021/03/19 00:00:04.550  -3962107.7347    3381307.1010    3668679.2864   6  10   0.1512   0.1688   0.2475  -0.0453   0.0506  -0.0743   0.00    0.0
2021/03/19 00:00:04.566  -3962107.7392    3381307.1027    3668679.2862   6  10   0.1513   0.1685   0.2471  -0.0454   0.0506  -0.0741   0.00    0.0
2021/03/19 00:00:04.583  -3962107.7452    3381307.1094    3668679.2939   6  10   0.1512   0.1686   0.2460  -0.0454   0.0506  -0.0738   0.00    0.0
2021/03/19 00:00:04.600  -3962107.7518    3381307.1108    3668679.2930   6  10   0.1515   0.1682   0.2455  -0.0455   0.0505  -0.0737   0.00    0.0
2021/03/19 00:00:04.616  -3962107.7623    3381307.1197    3668679.3015   6  10   0.1515   0.1681   0.2439  -0.0455   0.0504  -0.0732   0.00    0.0
2021/03/19 00:00:04.633  -3962107.7678    3381307.1203    3668679.3001   6  10   0.1518   0.1677   0.2436  -0.0456   0.0503  -0.0731   0.00    0.0
2021/03/19 00:00:04.650  -3962107.7714    3381307.1193    3668679.2981   6  10   0.1522   0.1674   0.2436  -0.0456   0.0502  -0.0731   0.00    0.0
2021/03/19 00:00:04.666  -3962107.7737    3381307.1182    3668679.2947   6  10   0.1524   0.1671   0.2437  -0.0457   0.0501  -0.0731   0.00    0.0
2021/03/19 00:00:04.683  -3962107.7775    3381307.1149    3668679.2963   6  10   0.1529   0.1672   0.2435  -0.0459   0.0502  -0.0731   0.00    0.0
2021/03/19 00:00:04.700  -3962107.7860    3381307.1179    3668679.2966   6  10   0.1532   0.1667   0.2428  -0.0460   0.0500  -0.0728   0.00    0.0
2021/03/19 00:00:04.716  -3962107.7950    3381307.1208    3668679.2965   6  10   0.1536   0.1662   0.2421  -0.0461   0.0499  -0.0726   0.00    0.0
2021/03/19 00:00:04.733  -3962107.7925    3381307.1145    3668679.2938   6  10   0.1539   0.1663   0.2428  -0.0462   0.0499  -0.0728   0.00    0.0
2021/03/19 00:00:04.750  -3962107.7911    3381307.1109    3668679.2883   6  10   0.1541   0.1661   0.2434  -0.0462   0.0498  -0.0730   0.00    0.0
2021/03/19 00:00:04.766  -3962107.7938    3381307.1106    3668679.2890   6  10   0.1543   0.1660   0.2432  -0.0463   0.0498  -0.0730   0.00    0.0
2021/03/19 00:00:04.783  -3962107.7980    3381307.1097    3668679.2891   6  10   0.1546   0.1659   0.2430  -0.0464   0.0498  -0.0729   0.00    0.0
2021/03/19 00:00:04.800  -3962107.8063    3381307.1109    3668679.2918   6  10   0.1551   0.1657   0.2422  -0.0465   0.0497  -0.0727   0.00    0.0
2021/03/19 00:00:04.816  -3962107.8060    3381307.1074    3668679.2881   6  10   0.1553   0.1656   0.2426  -0.0466   0.0497  -0.0728   0.00    0.0
2021/03/19 00:00:04.833  -3962107.8163    3381307.1187    3668679.2961   6  10   0.1551   0.1653   0.2409  -0.0465   0.0496  -0.0723   0.00    0.0
2021/03/19 00:00:04.850  -3962107.8248    3381307.1238    3668679.2977   6  10   0.1553   0.1649   0.2401  -0.0466   0.0495  -0.0720   0.00    0.0
2021/03/19 00:00:04.866  -3962107.8379    3381307.1351    3668679.3077   6  10   0.1553   0.1647   0.2381  -0.0466   0.0494  -0.0714   0.00    0.0
2021/03/19 00:00:04.883  -3962107.8440    3381307.1408    3668679.3083   6  10   0.1552   0.1643   0.2374  -0.0466   0.0493  -0.0712   0.00    0.0
2021/03/19 00:00:04.900  -3962107.8553    3381307.1488    3668679.3146   6  10   0.1554   0.1640   0.2359  -0.0466   0.0492  -0.0708   0.00    0.0
2021/03/19 00:00:04.916  -3962107.8600    3381307.1551    3668679.3177   6  10   0.1552   0.1638   0.2350  -0.0466   0.0491  -0.0705   0.00    0.0
2021/03/19 00:00:04.933  -3962107.8681    3381307.1585    3668679.3202   6  10   0.1555   0.1635   0.2342  -0.0466   0.0491  -0.0703   0.00    0.0
2021/03/19 00:00:04.950  -3962107.8728    3381307.1637    3668679.3264   6  10   0.1554   0.1636   0.2333  -0.0466   0.0491  -0.0700   0.00    0.0
2021/03/19 00:00:04.966  -3962107.8774    3381307.1624    3668679.3241   6  10   0.1558   0.1633   0.2332  -0.0467   0.0490  -0.0700   0.00    0.0
2021/03/19 00:00:04.983  -3962107.8839    3381307.1629    3668679.3253   6  10   0.1561   0.1631   0.2327  -0.0468   0.0489  -0.0698   0.00    0.0
2021/03/19 00:00:05.000  -3962107.8862    3381307.1683    3668679.3315   6  10   0.1559   0.1633   0.2319  -0.0468   0.0490  -0.0696   0.00    0.0
2021/03/19 00:00:05.016  -3962107.8906    3381307.1708    3668679.3323   6  10   0.1560   0.1631   0.2315  -0.0468   0.0489  -0.0694   0.00    0.0
2021/03/19 00:00:05.033  -3962107.8969    3381307.1703    3668679.3327   6  10   0.1564   0.1628   0.2311  -0.0469   0.0488  -0.0693   0.00    0.0
2021/03/19 00:00:05.050  -3962107.9018    3381307.1736    3668679.3360   6  10   0.1565   0.1628   0.2304  -0.0469   0.0488  -0.0691   0.00    0.0
2021/03/19 00:00:05.066  -3962107.9067    3381307.1762    3668679.3364   6  10   0.1566   0.1625   0.2300  -0.0470   0.0487  -0.0690   0.00    0.0
2021/03/19 00:00:05.083  -3962107.9052    3381307.1794    3668679.3393   6  10   0.1563   0.1627   0.2297  -0.0469   0.0488  -0.0689   0.00    0.0
2021/03/19 00:00:05.100  -3962107.9092    3381307.1845    3668679.3399   6  10   0.1561   0.1623   0.2292  -0.0468   0.0487  -0.0687   0.00    0.0
2021/03/19 00:00:05.116  -3962107.9062    3381307.1816    3668679.3332   6  10   0.1562   0.1620   0.2299  -0.0468   0.0486  -0.0690   0.00    0.0
2021/03/19 00:00:05.133  -3962107.9060    3381307.1824    3668679.3327   6  10   0.1561   0.1620   0.2299  -0.0468   0.0486  -0.0690   0.00    0.0
2021/03/19 00:00:05.150  -3962107.9050    3381307.1817    3668679.3259   6  10   0.1561   0.1615   0.2304  -0.0468   0.0484  -0.0691   0.00    0.0
2021/03/19 00:00:05.166  -3962107.8990    3381307.1736    3668679.3145   6  10   0.1563   0.1611   0.2318  -0.0469   0.0483  -0.0695   0.00    0.0
2021/03/19 00:00:05.183  -3962107.8983    3381307.1766    3668679.3122   6  10   0.1560   0.1609   0.2319  -0.0468   0.0483  -0.0696   0.00    0.0
2021/03/19 00:00:05.200  -3962107.8874    3381307.1677    3668679.2963   6  10   0.1560   0.1604   0.2339  -0.0468   0.0481  -0.0702   0.00    0.0
2021/03/19 00:00:05.216  -3962107.8797    3381307.1620    3668679.2877   6  10   0.1559   0.1602   0.2352  -0.0468   0.0481  -0.0706   0.00    0.0
2021/03/19 00:00:05.233  -3962107.8781    3381307.1567    3668679.2837   6  10   0.1562   0.1602   0.2358  -0.0469   0.0480  -0.0707   0.00    0.0
2021/03/19 00:00:05.250  -3962107.8745    3381307.1551    3668679.2724   6  10   0.1561   0.1595   0.2368  -0.0468   0.0478  -0.0710   0.00    0.0
2021/03/19 00:00:05.266  -3962107.8673    3381307.1507    3668679.2625   6  10   0.1560   0.1591   0.2380  -0.0468   0.0477  -0.0714   0.00    0.0
2021/03/19 00:00:05.283  -3962107.8618    3381307.1487    3668679.2571   6  10   0.1558   0.1590   0.2388  -0.0467   0.0477  -0.0716   0.00    0.0
2021/03/19 00:00:05.300  -3962107.8548    3381307.1481    3668679.2511   6  10   0.1554   0.1589   0.2396  -0.0466   0.0477  -0.0719   0.00    0.0
2021/03/19 00:00:05.316  -3962107.8458    3381307.1414    3668679.2351   6  10   0.1553   0.1582   0.2414  -0.0466   0.0475  -0.0724   0.00    0.0
2021/03/19 00:00:05.333  -3962107.8410    3381307.1399    3668679.2309   6  10   0.1551   0.1581   0.2421  -0.0465   0.0474  -0.0726   0.00    0.0
2021/03/19 00:00:05.350  -3962107.8333    3381307.1306    3668679.2251   6  10   0.1553   0.1583   0.2434  -0.0466   0.0475  -0.0730   0.00    0.0
2021/03/19 00:00:05.366  -3962107.8295    3381307.1236    3668679.2178   6  10   0.1556   0.1582   0.2444  -0.0467   0.0475  -0.0733   0.00    0.0
2021/03/19 00:00:05.383  -3962107.8265    3381307.1183    3668679.2149   6  10   0.1558   0.1583   0.2450  -0.0467   0.0475  -0.0735   0.00    0.0
2021/03/19 00:00:05.400  -3962107.8203    3381307.1095    3668679.2036   6  10   0.1561   0.1579   0.2465  -0.0468   0.0474  -0.0740   0.00    0.0
2021/03/19 00:00:05.416  -3962107.8197    3381307.1045    3668679.2019   6  10   0.1564   0.1580   0.2469  -0.0469   0.0474  -0.0741   0.00    0.0
2021/03/19 00:00:05.433  -3962107.8176    3381307.1012    3668679.2018   6  10   0.1565   0.1582   0.2472  -0.0470   0.0475  -0.0742   0.00    0.0
2021/03/19 00:00:05.450  -3962107.8144    3381307.0950    3668679.1992   6  10   0.1568   0.1584   0.2479  -0.0470   0.0475  -0.0744   0.00    0.0
2021/03/19 00:00:05.466  -3962107.8099    3381307.0906    3668679.1947   6  10   0.1568   0.1584   0.2487  -0.0471   0.0475  -0.0746   0.00    0.0
2021/03/19 00:00:05.483  -3962107.8123    3381307.0899    3668679.1914   6  10   0.1570   0.1580   0.2488  -0.0471   0.0474  -0.0746   0.00    0.0
2021/03/19 00:00:05.500  -3962107.8196    3381307.0985    3668679.1970   6  10   0.1569   0.1579   0.2475  -0.0471   0.0474  -0.0743   0.00    0.0
2021/03/19 00:00:05.516  -3962107.8169    3381307.0999    3668679.1937   6  10   0.1566   0.1577   0.2478  -0.0470   0.0473  -0.0743   0.00    0.0
2021/03/19 00:00:05.533  -3962107.8254    3381307.1159    3668679.2042   6  10   0.1559   0.1575   0.2458  -0.0468   0.0473  -0.0738   0.00    0.0
2021/03/19 00:00:05.550  -3962107.8253    3381307.1169    3668679.2053   6  10   0.1558   0.1576   0.2457  -0.0468   0.0473  -0.0737   0.00    0.0
2021/03/19 00:00:05.566  -3962107.8222    3381307.1177    3668679.2000   6  10   0.1556   0.1573   0.2462  -0.0467   0.0472  -0.0739   0.00    0.0
2021/03/19 00:00:05.583  -3962107.8223    3381307.1230    3668679.2004   6  10   0.1552   0.1571   0.2459  -0.0466   0.0471  -0.0738   0.00    0.0
2021/03/19 00:00:05.600  -3962107.8250    3381307.1291    3668679.2026   6  10   0.1549   0.1569   0.2453  -0.0465   0.0471  -0.0736   0.00    0.0
2021/03/19 00:00:05.616  -3962107.8196    3381307.1259    3668679.1973   6  10   0.1548   0.1568   0.2461  -0.0464   0.0471  -0.0738   0.00    0.0
2021/03/19 00:00:05.633  -3962107.8195    3381307.1330    3668679.2040   6  10   0.1542   0.1571   0.2453  -0.0463   0.0471  -0.0736   0.00    0.0
2021/03/19 00:00:05.650  -3962107.8135    3381307.1353    3668679.2048   6  10   0.1537   0.1574   0.2455  -0.0461   0.0472  -0.0737   0.00    0.0
2021/03/19 00:00:05.666  -3962107.8105    3381307.1380    3668679.1999   6  10   0.1533   0.1570   0.2458  -0.0460   0.0471  -0.0738   0.00    0.0
2021/03/19 00:00:05.683  -3962107.8070    3381307.1467    3668679.2040   6  10   0.1524   0.1572   0.2454  -0.0457   0.0472  -0.0736   0.00    0.0
2021/03/19 00:00:05.700  -3962107.8025    3381307.1498    3668679.1999   6  10   0.1519   0.1569   0.2457  -0.0456   0.0471  -0.0737   0.00    0.0
2021/03/19 00:00:05.716  -3962107.8043    3381307.1565    3668679.1979   6  10   0.1515   0.1564   0.2454  -0.0454   0.0469  -0.0736   0.00    0.0
2021/03/19 00:00:05.733  -3962107.8048    3381307.1634    3668679.1957   6  10   0.1510   0.1560   0.2451  -0.0453   0.0468  -0.0735   0.00    0.0
2021/03/19 00:00:05.750  -3962107.8083    3381307.1703    3668679.1971   6  10   0.1507   0.1557   0.2444  -0.0452   0.0467  -0.0733   0.00    0.0
2021/03/19 00:00:05.766  -3962107.8139    3381307.1778    3668679.1944   6  10   0.1505   0.1549   0.2438  -0.0451   0.0465  -0.0732   0.00    0.0
2021/03/19 00:00:05.783  -3962107.8182    3381307.1870    3668679.1967   6  10   0.1500   0.1546   0.2430  -0.0450   0.0464  -0.0729   0.00    0.0
2021/03/19 00:00:05.800  -3962107.8249    3381307.1939    3668679.1947   6  10   0.1499   0.1539   0.2423  -0.0450   0.0462  -0.0727   0.00    0.0
2021/03/19 00:00:05.816  -3962107.8337    3381307.2068    3668679.1988   6  10   0.1495   0.1533   0.2408  -0.0449   0.0460  -0.0722   0.00    0.0
2021/03/19 00:00:05.833  -3962107.8382    3381307.2106    3668679.1994   6  10   0.1495   0.1530   0.2403  -0.0449   0.0459  -0.0721   0.00    0.0
2021/03/19 00:00:05.850  -3962107.8475    3381307.2179    3668679.2010   6  10   0.1496   0.1525   0.2393  -0.0449   0.0457  -0.0718   0.00    0.0
2021/03/19 00:00:05.866  -3962107.8517    3381307.2263    3668679.2047   6  10   0.1492   0.1523   0.2383  -0.0448   0.0457  -0.0715   0.00    0.0
2021/03/19 00:00:05.883  -3962107.8606    3381307.2391    3668679.2127   6  10   0.1488   0.1520   0.2366  -0.0446   0.0456  -0.0710   0.00    0.0
2021/03/19 00:00:05.900  -3962107.8639    3381307.2449    3668679.2127   6  10   0.1486   0.1517   0.2361  -0.0446   0.0455  -0.0708   0.00    0.0
2021/03/19 00:00:05.916  -3962107.8641    3381307.2531    3668679.2115   6  10   0.1480   0.1513   0.2358  -0.0444   0.0454  -0.0707   0.00    0.0
2021/03/19 00:00:05.933  -3962107.8662    3381307.2606    3668679.2150   6  10   0.1476   0.1512   0.2350  -0.0443   0.0454  -0.0705   0.00    0.0
2021/03/19 00:00:05.950  -3962107.8702    3381307.2675    3668679.2147   6  10   0.1473   0.1507   0.2344  -0.0442   0.0452  -0.0703   0.00    0.0
2021/03/19 00:00:05.966  -3962107.8721    3381307.2744    3668679.2169   6  10   0.1469   0.1506   0.2338  -0.0441   0.0452  -0.0701   0.00    0.0
2021/03/19 00:00:05.983  -3962107.8740    3381307.2799    3668679.2165   6  10   0.1466   0.1502   0.2334  -0.0440   0.0451  -0.0700   0.00    0.0
2021/03/19 00:00:06.000  -3962107.8794    3381307.2900    3668679.2210   6  10   0.1462   0.1500   0.2323  -0.0439   0.0450  -0.0697   0.00    0.0
2021/03/19 00:00:06.016  -3962107.8830    3381307.2976    3668679.2239   6  10   0.1458   0.1498   0.2315  -0.0437   0.0449  -0.0695   0.00    0.0
2021/03/19 00:00:06.033  -3962107.8864    3381307.3088    3668679.2268   6  10   0.1452   0.1495   0.2305  -0.0436   0.0448  -0.0692   0.00    0.0
2021/03/19 00:00:06.050  -3962107.8890    3381307.3152    3668679.2327   6  10   0.1449   0.1496   0.2297  -0.0435   0.0449  -0.0689   0.00    0.0
2021/03/19 00:00:06.066  -3962107.8924    3381307.3222    3668679.2355   6  10   0.1446   0.1494   0.2289  -0.0434   0.0448  -0.0687   0.00    0.0
2021/03/19 00:00:06.083  -3962107.8977    3381307.3282    3668679.2399   6  10   0.1445   0.1493   0.2280  -0.0433   0.0448  -0.0684   0.00    0.0
2021/03/19 00:00:06.100  -3962107.9035    3381307.3391    3668679.2484   6  10   0.1440   0.1493   0.2266  -0.0432   0.0448  -0.0680   0.00    0.0
2021/03/19 00:00:06.116  -3962107.9057    3381307.3467    3668679.2518   6  10   0.1436   0.1492   0.2259  -0.0431   0.0448  -0.0678   0.00    0.0
2021/03/19 00:00:06.133  -3962107.9153    3381307.3565    3668679.2584   6  10   0.1434   0.1490   0.2244  -0.0430   0.0447  -0.0673   0.00    0.0
2021/03/19 00:00:06.150  -3962107.9203    3381307.3639    3668679.2674   6  10   0.1432   0.1492   0.2232  -0.0430   0.0448  -0.0670   0.00    0.0
2021/03/19 00:00:06.166  -3962107.9279    3381307.3757    3668679.2722   6  10   0.1428   0.1488   0.2218  -0.0428   0.0446  -0.0665   0.00    0.0
2021/03/19 00:00:06.183  -3962107.9260    3381307.3802    3668679.2729   6  10   0.1423   0.1488   0.2216  -0.0427   0.0446  -0.0665   0.00    0.0
2021/03/19 00:00:06.200  -3962107.9296    3381307.3875    3668679.2720   6  10   0.1420   0.1483   0.2211  -0.0426   0.0445  -0.0663   0.00    0.0
2021/03/19 00:00:06.216  -3962107.9312    3381307.3931    3668679.2795   6  10   0.1417   0.1486   0.2202  -0.0425   0.0446  -0.0661   0.00    0.0
2021/03/19 00:00:06.233  -3962107.9354    3381307.4032    3668679.2841   6  10   0.1412   0.1484   0.2192  -0.0424   0.0445  -0.0658   0.00    0.0
2021/03/19 00:00:06.250  -3962107.9327    3381307.4026    3668679.2791   6  10   0.1411   0.1482   0.2197  -0.0423   0.0444  -0.0659   0.00    0.0
2021/03/19 00:00:06.266  -3962107.9297    3381307.4005    3668679.2773   6  10   0.1410   0.1482   0.2201  -0.0423   0.0445  -0.0660   0.00    0.0
2021/03/19 00:00:06.283  -3962107.9320    3381307.4058    3668679.2820   6  10   0.1408   0.1483   0.2194  -0.0422   0.0445  -0.0658   0.00    0.0
2021/03/19 00:00:06.300  -3962107.9260    3381307.4083    3668679.2793   6  10   0.1402   0.1483   0.2198  -0.0421   0.0445  -0.0659   0.00    0.0
2021/03/19 00:00:06.316  -3962107.9266    3381307.4129    3668679.2821   6  10   0.1399   0.1483   0.2193  -0.0420   0.0445  -0.0658   0.00    0.0
2021/03/19 00:00:06.333  -3962107.9258    3381307.4109    3668679.2810   6  10   0.1400   0.1483   0.2195  -0.0420   0.0445  -0.0659   0.00    0.0
2021/03/19 00:00:06.350  -3962107.9173    3381307.4081    3668679.2726   6  10   0.1397   0.1481   0.2207  -0.0419   0.0444  -0.0662   0.00    0.0
2021/03/19 00:00:06.366  -3962107.9164    3381307.4147    3668679.2792   6  10   0.1391   0.1484   0.2200  -0.0417   0.0445  -0.0660   0.00    0.0
2021/03/19 00:00:06.383  -3962107.9127    3381307.4170    3668679.2788   6  10   0.1387   0.1485   0.2202  -0.0416   0.0445  -0.0660   0.00    0.0
2021/03/19 00:00:06.400  -3962107.9043    3381307.4131    3668679.2727   6  10   0.1384   0.1485   0.2212  -0.0415   0.0445  -0.0664   0.00    0.0
2021/03/19 00:00:06.416  -3962107.9011    3381307.4140    3668679.2708   6  10   0.1382   0.1484   0.2215  -0.0414   0.0445  -0.0665   0.00    0.0
2021/03/19 00:00:06.433  -3962107.9001    3381307.4206    3668679.2731   6  10   0.1376   0.1484   0.2211  -0.0413   0.0445  -0.0663   0.00    0.0
2021/03/19 00:00:06.450  -3962107.8944    3381307.4232    3668679.2679   6  10   0.1370   0.1482   0.2216  -0.0411   0.0444  -0.0665   0.00    0.0
2021/03/19 00:00:06.466  -3962107.8889    3381307.4227    3668679.2648   6  10   0.1367   0.1482   0.2221  -0.0410   0.0444  -0.0666   0.00    0.0
2021/03/19 00:00:06.483  -3962107.8876    3381307.4218    3668679.2665   6  10   0.1367   0.1484   0.2222  -0.0410   0.0445  -0.0667   0.00    0.0
2021/03/19 00:00:06.500  -3962107.8814    3381307.4274    3668679.2648   6  10   0.1359   0.1483   0.2224  -0.0408   0.0445  -0.0667   0.00    0.0
2021/03/19 00:00:06.516  -3962107.8763    3381307.4236    3668679.2610   6  10   0.1358   0.1484   0.2231  -0.0407   0.0445  -0.0669   0.00    0.0
2021/03/19 00:00:06.533  -3962107.8680    3381307.4242    3668679.2581   6  10   0.1352   0.1485   0.2238  -0.0406   0.0445  -0.0671   0.00    0.0
2021/03/19 00:00:06.550  -3962107.8629    3381307.4261    3668679.2561   6  10   0.1347   0.1485   0.2241  -0.0404   0.0445  -0.0672   0.00    0.0
2021/03/19 00:00:06.566  -3962107.8569    3381307.4304    3668679.2579   6  10   0.1340   0.1487   0.2241  -0.0402   0.0446  -0.0672   0.00    0.0
2021/03/19 00:00:06.583  -3962107.8541    3381307.4323    3668679.2596   6  10   0.1337   0.1489   0.2241  -0.0401   0.0447  -0.0672   0.00    0.0
2021/03/19 00:00:06.600  -3962107.8515    3381307.4341    3668679.2593   6  10   0.1334   0.1489   0.2242  -0.0400   0.0447  -0.0673   0.00    0.0
2021/03/19 00:00:06.616  -3962107.8497    3381307.4398    3668679.2611   6  10   0.1329   0.1489   0.2239  -0.0399   0.0447  -0.0672   0.00    0.0
2021/03/19 00:00:06.633  -3962107.8450    3381307.4406    3668679.2558   6  10   0.1325   0.1487   0.2244  -0.0397   0.0446  -0.0673   0.00    0.0
2021/03/19 00:00:06.650  -3962107.8395    3381307.4416    3668679.2551   6  10   0.1321   0.1488   0.2248  -0.0396   0.0447  -0.0674   0.00    0.0
2021/03/19 00:00:06.666  -3962107.8383    3381307.4453    3668679.2574   6  10   0.1317   0.1489   0.2245  -0.0395   0.0447  -0.0674   0.00    0.0
2021/03/19 00:00:06.683  -3962107.8333    3381307.4451    3668679.2585   6  10   0.1314   0.1493   0.2248  -0.0394   0.0448  -0.0674   0.00    0.0
2021/03/19 00:00:06.700  -3962107.8362    3381307.4503    3668679.2629   6  10   0.1312   0.1493   0.2241  -0.0394   0.0448  -0.0672   0.00    0.0
2021/03/19 00:00:06.716  -3962107.8257    3381307.4473    3668679.2602   6  10   0.1307   0.1496   0.2250  -0.0392   0.0449  -0.0675   0.00    0.0
2021/03/19 00:00:06.733  -3962107.8206    3381307.4482    3668679.2601   6  10   0.1303   0.1498   0.2253  -0.0391   0.0450  -0.0676   0.00    0.0
2021/03/19 00:00:06.750  -3962107.8144    3381307.4473    3668679.2606   6  10   0.1300   0.1502   0.2257  -0.0390   0.0451  -0.0677   0.00    0.0
2021/03/19 00:00:06.766  -3962107.8146    3381307.4490    3668679.2626   6  10   0.1299   0.1503   0.2255  -0.0390   0.0451  -0.0676   0.00    0.0
2021/03/19 00:00:06.783  -3962107.8116    3381307.4522    3668679.2597   6  10   0.1294   0.1500   0.2257  -0.0388   0.0450  -0.0677   0.00    0.0
2021/03/19 00:00:06.800  -3962107.8040    3381307.4483    3668679.2583   6  10   0.1292   0.1504   0.2264  -0.0388   0.0451  -0.0679   0.00    0.0
2021/03/19 00:00:06.816  -3962107.8036    3381307.4544    3668679.2600   6  10   0.1287   0.1503   0.2260  -0.0386   0.0451  -0.0678   0.00    0.0
2021/03/19 00:00:06.833  -3962107.8047    3381307.4575    3668679.2604   6  10   0.1286   0.1502   0.2258  -0.0386   0.0451  -0.0677   0.00    0.0
2021/03/19 00:00:06.850  -3962107.8024    3381307.4593    3668679.2614   6  10   0.1283   0.1503   0.2258  -0.0385   0.0451  -0.0677   0.00    0.0
2021/03/19 00:00:06.866  -3962107.7966    3381307.4595    3668679.2594   6  10   0.1279   0.1504   0.2262  -0.0384   0.0451  -0.0679   0.00    0.0
2021/03/19 00:00:06.883  -3962107.7961    3381307.4597    3668679.2610   6  10   0.1279   0.1505   0.2262  -0.0384   0.0452  -0.0679   0.00    0.0
2021/03/19 00:00:06.900  -3962107.7922    3381307.4592    3668679.2572   6  10   0.1276   0.1504   0.2267  -0.0383   0.0451  -0.0680   0.00    0.0
2021/03/19 00:00:06.916  -3962107.7877    3381307.4606    3668679.2559   6  10   0.1272   0.1505   0.2269  -0.0382   0.0451  -0.0681   0.00    0.0
2021/03/19 00:00:06.933  -3962107.7850    3381307.4556    3668679.2525   6  10   0.1275   0.1505   0.2276  -0.0382   0.0451  -0.0683   0.00    0.0
2021/03/19 00:00:06.950  -3962107.7803    3381307.4535    3668679.2499   6  10   0.1273   0.1506   0.2281  -0.0382   0.0452  -0.0684   0.00    0.0
2021/03/19 00:00:06.966  -3962107.7777    3381307.4540    3668679.2463   6  10   0.1271   0.1504   0.2285  -0.0381   0.0451  -0.0685   0.00    0.0
2021/03/19 00:00:06.983  -3962107.7743    3381307.4475    3668679.2429   6  10   0.1274   0.1505   0.2292  -0.0382   0.0451  -0.0688   0.00    0.0
2021/03/19 00:00:07.000  -3962107.7724    3381307.4465    3668679.2375   6  10   0.1273   0.1502   0.2297  -0.0382   0.0451  -0.0689   0.00    0.0
2021/03/19 00:00:07.016  -3962107.7792    3381307.4562    3668679.2421   6  10   0.1270   0.1499   0.2285  -0.0381   0.0450  -0.0685   0.00    0.0
2021/03/19 00:00:07.033  -3962107.7731    3381307.4506    3668679.2384   6  10   0.1271   0.1501   0.2294  -0.0381   0.0450  -0.0688   0.00    0.0
2021/03/19 00:00:07.050  -3962107.7770    3381307.4500    3668679.2392   6  10   0.1274   0.1500   0.2291  -0.0382   0.0450  -0.0687   0.00    0.0
2021/03/19 00:00:07.066  -3962107.7803    3381307.4564    3668679.2478   6  10   0.1271   0.1503   0.2281  -0.0381   0.0451  -0.0684   0.00    0.0
2021/03/19 00:00:07.083  -3962107.7759    3381307.4530    3668679.2423   6  10   0.1271   0.1502   0.2289  -0.0381   0.0450  -0.0687   0.00    0.0
2021/03/19 00:00:07.100  -3962107.7789    3381307.4589    3668679.2500   6  10   0.1268   0.1504   0.2279  -0.0380   0.0451  -0.0684   0.00    0.0
2021/03/19 00:00:07.116  -3962107.7766    3381307.4580    3668679.2470   6  10   0.1267   0.1503   0.2283  -0.0380   0.0451  -0.0685   0.00    0.0
2021/03/19 00:00:07.133  -3962107.7801    3381307.4555    3668679.2467   6  10   0.1271   0.1502   0.2282  -0.0381   0.0451  -0.0685   0.00    0.0
2021/03/19 00:00:07.150  -3962107.7790    3381307.4590    3668679.2452   6  10   0.1268   0.1500   0.2282  -0.0380   0.0450  -0.0685   0.00    0.0
2021/03/19 00:00:07.166  -3962107.7813    3381307.4586    3668679.2489   6  10   0.1270   0.1503   0.2278  -0.0381   0.0451  -0.0684   0.00    0.0
2021/03/19 00:00:07.183  -3962107.7848    3381307.4593    3668679.2463   6  10   0.1272   0.1499   0.2277  -0.0381   0.0450  -0.0683   0.00    0.0
2021/03/19 00:00:07.200  -3962107.7829    3381307.4534    3668679.2419   6  10   0.1275   0.1498   0.2284  -0.0382   0.0449  -0.0685   0.00    0.0
2021/03/19 00:00:07.216  -3962107.7851    3381307.4560    3668679.2440   6  10   0.1274   0.1498   0.2280  -0.0382   0.0449  -0.0684   0.00    0.0
2021/03/19 00:00:07.233  -3962107.7901    3381307.4575    3668679.2469   6  10   0.1276   0.1497   0.2275  -0.0383   0.0449  -0.0682   0.00    0.0
2021/03/19 00:00:07.250  -3962107.7908    3381307.4612    3668679.2499   6  10   0.1274   0.1498   0.2271  -0.0382   0.0449  -0.0681   0.00    0.0
2021/03/19 00:00:07.266  -3962107.7938    3381307.4607    3668679.2512   6  10   0.1276   0.1498   0.2268  -0.0383   0.0449  -0.0680   0.00    0.0
2021/03/19 00:00:07.283  -3962107.7941    3381307.4604    3668679.2499   6  10   0.1277   0.1497   0.2269  -0.0383   0.0449  -0.0681   0.00    0.0
2021/03/19 00:00:07.300  -3962107.7972    3381307.4635    3668679.2497   6  10   0.1276   0.1494   0.2265  -0.0383   0.0448  -0.0680   0.00    0.0
2021/03/19 00:00:07.316  -3962107.7970    3381307.4594    3668679.2473   6  10   0.1279   0.1494   0.2269  -0.0384   0.0448  -0.0681   0.00    0.0
2021/03/19 00:00:07.333  -3962107.7997    3381307.4603    3668679.2485   6  10   0.1281   0.1494   0.2266  -0.0384   0.0448  -0.0680   0.00    0.0
2021/03/19 00:00:07.350  -3962107.7944    3381307.4562    3668679.2446   6  10   0.1280   0.1494   0.2274  -0.0384   0.0448  -0.0682   0.00    0.0
2021/03/19 00:00:07.366  -3962107.7945    3381307.4541    3668679.2461   6  10   0.1282   0.1496   0.2274  -0.0385   0.0449  -0.0682   0.00    0.0
2021/03/19 00:00:07.383  -3962107.7902    3381307.4410    3668679.2399   6  10   0.1289   0.1498   0.2287  -0.0387   0.0449  -0.0686   0.00    0.0
2021/03/19 00:00:07.400  -3962107.7914    3381307.4433    3668679.2419   6  10   0.1288   0.1498   0.2284  -0.0386   0.0449  -0.0685   0.00    0.0
2021/03/19 00:00:07.416  -3962107.7945    3381307.4410    3668679.2419   6  10   0.1292   0.1498   0.2284  -0.0388   0.0449  -0.0685   0.00    0.0
2021/03/19 00:00:07.433  -3962107.7931    3381307.4350    3668679.2368   6  10   0.1295   0.1496   0.2291  -0.0389   0.0449  -0.0687   0.00    0.0
2021/03/19 00:00:07.450  -3962107.7945    3381307.4350    3668679.2394   6  10   0.1296   0.1498   0.2288  -0.0389   0.0449  -0.0686   0.00    0.0
2021/03/19 00:00:07.466  -3962107.7980    3381307.4358    3668679.2434   6  10   0.1298   0.1499   0.2283  -0.0389   0.0450  -0.0685   0.00    0.0
2021/03/19 00:00:07.483  -3962107.8002    3381307.4341    3668679.2471   6  10   0.1301   0.1502   0.2281  -0.0390   0.0451  -0.0684   0.00    0.0
2021/03/19 00:00:07.500  -3962107.8034    3381307.4353    3668679.2475   6  10   0.1302   0.1500   0.2278  -0.0391   0.0450  -0.0683   0.00    0.0
2021/03/19 00:00:07.516  -3962107.8056    3381307.4336    3668679.2427   6  10   0.1305   0.1496   0.2280  -0.0391   0.0449  -0.0684   0.00    0.0
2021/03/19 00:00:07.533  -3962107.8074    3381307.4274    3668679.2447   6  10   0.1310   0.1499   0.2281  -0.0393   0.0450  -0.0684   0.00    0.0
2021/03/19 00:00:07.550  -3962107.8067    3381307.4238    3668679.2398   6  10   0.1313   0.1497   0.2286  -0.0394   0.0449  -0.0686   0.00    0.0
2021/03/19 00:00:07.566  -3962107.8021    3381307.4159    3668679.2370   6  10   0.1316   0.1500   0.2295  -0.0395   0.0450  -0.0689   0.00    0.0
2021/03/19 00:00:07.583  -3962107.8044    3381307.4117    3668679.2344   6  10   0.1321   0.1498   0.2297  -0.0396   0.0449  -0.0689   0.00    0.0
2021/03/19 00:00:07.600  -3962107.8097    3381307.4169    3668679.2422   6  10   0.1320   0.1500   0.2287  -0.0396   0.0450  -0.0686   0.00    0.0
2021/03/19 00:00:07.616  -3962107.8116    3381307.4096    3668679.2391   6  10   0.1327   0.1500   0.2291  -0.0398   0.0450  -0.0687   0.00    0.0
2021/03/19 00:00:07.633  -3962107.8082    3381307.4011    3668679.2360   6  10   0.1331   0.1502   0.2300  -0.0399   0.0451  -0.0690   0.00    0.0
2021/03/19 00:00:07.650  -3962107.8171    3381307.4080    3668679.2412   6  10   0.1332   0.1499   0.2287  -0.0399   0.0450  -0.0686   0.00    0.0
2021/03/19 00:00:07.666  -3962107.8192    3381307.4025    3668679.2405   6  10   0.1337   0.1500   0.2289  -0.0401   0.0450  -0.0687   0.00    0.0
